[
    {
        "stadiumName": "保利新武昌游泳池",
        "latitude": "30.494704",
        "longitude": "114.295949"
    },
    {
        "stadiumName": "弘体篮球公园",
        "latitude": "30.600175",
        "longitude": "114.343008"
    },
    {
        "stadiumName": "好燃时刻体育公园（丽水路店）",
        "latitude": "30.466333",
        "longitude": "114.25041"
    },
    {
        "stadiumName": "滑笑堂滑板公园",
        "latitude": "30.580595",
        "longitude": "114.269745"
    },
    {
        "stadiumName": "酷客体育",
        "latitude": "30.656695",
        "longitude": "114.337033"
    },
    {
        "stadiumName": "跃测网球（武汉河之洲店）",
        "latitude": "30.573778",
        "longitude": "114.21654"
    },
    {
        "stadiumName": "酷盖体育篮排球馆",
        "latitude": "30.351021",
        "longitude": "114.339088"
    },
    {
        "stadiumName": "欢乐汇（洪山）运动中心",
        "latitude": "30.50632",
        "longitude": "114.339481"
    },
    {
        "stadiumName": "同学汇·运动中心",
        "latitude": "30.491636",
        "longitude": "114.513894"
    },
    {
        "stadiumName": "妙羽星工厂体育公园",
        "latitude": "30.61874",
        "longitude": "114.13324"
    },
    {
        "stadiumName": "武汉全民健身中心",
        "latitude": "30.641138",
        "longitude": "114.284576"
    },
    {
        "stadiumName": "港湾江城游泳池",
        "latitude": "30.458798",
        "longitude": "114.195118"
    },
    {
        "stadiumName": "冰豆豆俱乐部",
        "latitude": "30.640945",
        "longitude": "114.242437"
    },
    {
        "stadiumName": "国博江滩运动馆",
        "latitude": "30.509295",
        "longitude": "114.251528"
    },
    {
        "stadiumName": "恺明羽毛球篮球运动馆",
        "latitude": "30.674635",
        "longitude": "114.280197"
    },
    {
        "stadiumName": "红钢二街恒温游泳馆",
        "latitude": "30.645192",
        "longitude": "114.397489"
    },
    {
        "stadiumName": "青山江滩游泳池",
        "latitude": "30.649808",
        "longitude": "114.40583"
    },
    {
        "stadiumName": "武汉体育馆",
        "latitude": "30.57751",
        "longitude": "114.26034"
    },
    {
        "stadiumName": "丘山体育运动公园",
        "latitude": "30.519624",
        "longitude": "114.395906"
    },
    {
        "stadiumName": "苏迪曼羽毛球馆",
        "latitude": "30.661619",
        "longitude": "114.324913"
    },
    {
        "stadiumName": "曼巴体育馆",
        "latitude": "30.43111",
        "longitude": "114.429764"
    },
    {
        "stadiumName": "奥山冰场",
        "latitude": "30.617353",
        "longitude": "114.360809"
    },
    {
        "stadiumName": "张斌10号足球公园",
        "latitude": "30.619722",
        "longitude": "114.238367"
    },
    {
        "stadiumName": "武汉乐旋体育文化发展有限公司",
        "latitude": "30.609119",
        "longitude": "114.269318"
    },
    {
        "stadiumName": "磨山篮球场",
        "latitude": "30.563524",
        "longitude": "114.199097"
    },
    {
        "stadiumName": "拓高乐武汉城市体育娱乐中心",
        "latitude": "30.544791",
        "longitude": "114.189628"
    },
    {
        "stadiumName": "熊猫球社",
        "latitude": "30.507428",
        "longitude": "114.37337"
    },
    {
        "stadiumName": "好燃时刻智慧体育公园",
        "latitude": "30.602331",
        "longitude": "114.380035"
    },
    {
        "stadiumName": "少年强体育俱乐部",
        "latitude": "30.44881",
        "longitude": "114.0432"
    },
    {
        "stadiumName": "武汉市武泰闸体育场",
        "latitude": "30.55386",
        "longitude": "114.31599"
    },
    {
        "stadiumName": "湖北省奥林匹克体育中心体育馆",
        "latitude": "30.471358",
        "longitude": "114.462462"
    },
    {
        "stadiumName": "可汗运动·李宁羽毛球馆玉龙馆",
        "latitude": "30.56829",
        "longitude": "114.20282"
    },
    {
        "stadiumName": "兴丰篮球馆",
        "latitude": "30.574522",
        "longitude": "114.324082"
    },
    {
        "stadiumName": "泳动恒温游泳馆",
        "latitude": "30.623302",
        "longitude": "114.374732"
    },
    {
        "stadiumName": "蒙淖尔乒乓球运动训练中心",
        "latitude": "30.545053",
        "longitude": "114.346488"
    },
    {
        "stadiumName": "蜜冠网球铁机路店",
        "latitude": "30.603978",
        "longitude": "114.378525"
    },
    {
        "stadiumName": "汉阳江滩武汉悠迪网球·悠扬迪体育",
        "latitude": "30.545111",
        "longitude": "114.2792"
    },
    {
        "stadiumName": "武汉市蔡甸区全民健身中心",
        "latitude": "30.57843",
        "longitude": "114.02598"
    },
    {
        "stadiumName": "张之洞体育公园",
        "latitude": "30.567599",
        "longitude": "114.242796"
    },
    {
        "stadiumName": "自由时刻台球俱乐部",
        "latitude": "30.504807",
        "longitude": "114.378263"
    },
    {
        "stadiumName": "千禧城游泳池",
        "latitude": "30.597931",
        "longitude": "114.206891"
    },
    {
        "stadiumName": "康礼标靶运动中心",
        "latitude": "30.711842",
        "longitude": "114.256157"
    },
    {
        "stadiumName": "汉口江滩三期室外网球场·奥雅体育",
        "latitude": "30.624838",
        "longitude": "114.327005"
    },
    {
        "stadiumName": "聚锋时刻运动综合馆",
        "latitude": "30.534762",
        "longitude": "114.328685"
    },
    {
        "stadiumName": "极空间运动生活中心",
        "latitude": "30.584405",
        "longitude": "114.383974"
    },
    {
        "stadiumName": "好燃时刻体育综合体（卓刀泉店）",
        "latitude": "30.504807",
        "longitude": "114.378263"
    },
    {
        "stadiumName": "花山滑翔伞基地",
        "latitude": "30.566246",
        "longitude": "114.498195"
    },
    {
        "stadiumName": "汉口江滩三期捷众体育足球场·捷众体育",
        "latitude": "30.61322",
        "longitude": "114.3194"
    },
    {
        "stadiumName": "武汉体育中心攀岩基地",
        "latitude": "30.502148",
        "longitude": "114.174477"
    },
    {
        "stadiumName": "汉阳伯明顿运动中心",
        "latitude": "30.54894",
        "longitude": "114.19787"
    },
    {
        "stadiumName": "向阳体育公园",
        "latitude": "30.519994",
        "longitude": "114.247017"
    },
    {
        "stadiumName": "胡斌桌球会",
        "latitude": "30.591265",
        "longitude": "114.275135"
    },
    {
        "stadiumName": "汉江湾全民健身中心",
        "latitude": "30.583782",
        "longitude": "114.19989"
    },
    {
        "stadiumName": "桥都乒乓球训练中心",
        "latitude": "30.550228",
        "longitude": "114.273899"
    },
    {
        "stadiumName": "阳光在线游泳馆",
        "latitude": "30.496321",
        "longitude": "114.403636"
    },
    {
        "stadiumName": "武汉市汉南区综合体育馆",
        "latitude": "30.31217",
        "longitude": "114.08525"
    },
    {
        "stadiumName": "东西湖区射箭训练基地",
        "latitude": "30.635317",
        "longitude": "114.133736"
    },
    {
        "stadiumName": "武昌江滩捷众体育足篮球场·捷众体育",
        "latitude": "30.602678",
        "longitude": "114.352047"
    },
    {
        "stadiumName": "自由时刻体育（解放公园店）",
        "latitude": "30.607756",
        "longitude": "114.302482"
    },
    {
        "stadiumName": "汤逊湖人才公园体育中心-群英荟运动营",
        "latitude": "30.384619",
        "longitude": "114.318417"
    },
    {
        "stadiumName": "迈科威羽毛球馆",
        "latitude": "30.536737",
        "longitude": "114.210992"
    },
    {
        "stadiumName": "EP青山足球乐园",
        "latitude": "30.638691",
        "longitude": "114.408173"
    },
    {
        "stadiumName": "起点网球俱乐部-匹克球（海绵公园店）",
        "latitude": "30.598313",
        "longitude": "114.388877"
    },
    {
        "stadiumName": "动宝体育27-Park运动公园",
        "latitude": "30.619619",
        "longitude": "114.355579"
    },
    {
        "stadiumName": "皓千篮球公园",
        "latitude": "30.475233",
        "longitude": "114.420036"
    },
    {
        "stadiumName": "冰龙冰上运动中心",
        "latitude": "30.601408",
        "longitude": "114.254402"
    },
    {
        "stadiumName": "小麦篮球馆（后湖篮球公园）",
        "latitude": "30.657308",
        "longitude": "114.307433"
    },
    {
        "stadiumName": "UP PARK光荣之路篮球公园",
        "latitude": "30.58254",
        "longitude": "114.220237"
    },
    {
        "stadiumName": "飞跃冰上运动中心",
        "latitude": "30.627604",
        "longitude": "114.37787"
    },
    {
        "stadiumName": "甘露山国际滑雪场-武汉城建热雪奇迹",
        "latitude": "30.884288",
        "longitude": "114.407123"
    },
    {
        "stadiumName": "汉口文化体育中心",
        "latitude": "30.60149",
        "longitude": "114.269592"
    },
    {
        "stadiumName": "极一公社篮球馆",
        "latitude": "30.488409",
        "longitude": "114.294235"
    },
    {
        "stadiumName": "旋风乒乓",
        "latitude": "30.480738",
        "longitude": "114.442147"
    },
    {
        "stadiumName": "WS热雪奇迹",
        "latitude": "30.529966",
        "longitude": "114.340443"
    },
    {
        "stadiumName": "清江泓景游泳池",
        "latitude": "30.392172",
        "longitude": "114.323891"
    },
    {
        "stadiumName": "UP PARK日落海滩篮球公园",
        "latitude": "30.593591",
        "longitude": "114.263742"
    },
    {
        "stadiumName": "华电羽毛球馆",
        "latitude": "30.58227",
        "longitude": "114.357407"
    },
    {
        "stadiumName": "沙湖公园灯光球场",
        "latitude": "30.566974",
        "longitude": "114.326147"
    },
    {
        "stadiumName": "励上乒乓",
        "latitude": "30.407382",
        "longitude": "114.37219"
    },
    {
        "stadiumName": "康礼标靶运动中心（篮球馆）",
        "latitude": "30.711842",
        "longitude": "114.256157"
    },
    {
        "stadiumName": "汉口江滩三期斯伯丁篮球公园·汉为体育",
        "latitude": "30.621187",
        "longitude": "114.325165"
    },
    {
        "stadiumName": "四新体育公园游泳馆",
        "latitude": "30.536538",
        "longitude": "114.210504"
    },
    {
        "stadiumName": "康倍特运动馆建十店",
        "latitude": "30.633868",
        "longitude": "114.413976"
    },
    {
        "stadiumName": "洪山文体中心游泳馆",
        "latitude": "30.50295",
        "longitude": "114.332"
    },
    {
        "stadiumName": "康之泉活水馆武汉四新馆",
        "latitude": "30.536495",
        "longitude": "114.196875"
    },
    {
        "stadiumName": "武汉五环体育中心",
        "latitude": "30.63415",
        "longitude": "114.13669"
    },
    {
        "stadiumName": "汉运动·二妃体育馆",
        "latitude": "30.481168",
        "longitude": "114.477408"
    },
    {
        "stadiumName": "盛荟体育公园",
        "latitude": "30.719633",
        "longitude": "114.407413"
    },
    {
        "stadiumName": "天恒星体育中心",
        "latitude": "30.546911",
        "longitude": "114.307762"
    },
    {
        "stadiumName": "武汉市江夏体育馆",
        "latitude": "30.35168",
        "longitude": "114.3151"
    },
    {
        "stadiumName": "冰龙双子座冰上运动中心",
        "latitude": "30.600569",
        "longitude": "114.094744"
    },
    {
        "stadiumName": "武汉市五六七天天羽球馆",
        "latitude": "30.593449",
        "longitude": "114.365196"
    },
    {
        "stadiumName": "乐动篮球运动中心",
        "latitude": "30.590514",
        "longitude": "114.369369"
    },
    {
        "stadiumName": "青山区全民健身中心",
        "latitude": "30.63099",
        "longitude": "114.40636"
    },
    {
        "stadiumName": "奥搏之星霍霖球馆",
        "latitude": "30.622346",
        "longitude": "114.406758"
    },
    {
        "stadiumName": "东湖听涛水上运动营地",
        "latitude": "30.57751",
        "longitude": "114.37558"
    },
    {
        "stadiumName": "维佳真冰俱乐部",
        "latitude": "30.501499",
        "longitude": "114.326278"
    },
    {
        "stadiumName": "铁桥广场运动中心",
        "latitude": "30.56255",
        "longitude": "114.22667"
    },
    {
        "stadiumName": "武东文体中心",
        "latitude": "30.580026",
        "longitude": "114.456525"
    },
    {
        "stadiumName": "湖北中核国际大酒店恒温游泳池",
        "latitude": "30.564356",
        "longitude": "114.060305"
    },
    {
        "stadiumName": "迅博体育滨江篮球公园",
        "latitude": "30.631086",
        "longitude": "114.322586"
    },
    {
        "stadiumName": "武汉宏宇乒乓球俱乐部（湘隆馆）",
        "latitude": "30.498522",
        "longitude": "114.168243"
    },
    {
        "stadiumName": "保利公园九里游泳池",
        "latitude": "30.506163",
        "longitude": "114.305675"
    },
    {
        "stadiumName": "全明星滑冰俱乐部",
        "latitude": "30.579689",
        "longitude": "114.271286"
    },
    {
        "stadiumName": "汉运动·园博园网球馆",
        "latitude": "30.59501",
        "longitude": "114.18082"
    },
    {
        "stadiumName": "新洲区精学国球馆",
        "latitude": "30.83847",
        "longitude": "114.808861"
    },
    {
        "stadiumName": "武昌江滩游泳池",
        "latitude": "30.578747",
        "longitude": "114.31624"
    },
    {
        "stadiumName": "自由时刻体育公园(沙湖店)",
        "latitude": "30.578039",
        "longitude": "114.357193"
    },
    {
        "stadiumName": "五环体育中心橡果网球俱乐部",
        "latitude": "30.636681",
        "longitude": "114.134171"
    },
    {
        "stadiumName": "库昊体育巡司河篮球馆",
        "latitude": "30.466478",
        "longitude": "114.309227"
    },
    {
        "stadiumName": "关东运动公园",
        "latitude": "30.4673",
        "longitude": "114.394734"
    },
    {
        "stadiumName": "绅士星球汇",
        "latitude": "30.639744",
        "longitude": "114.397067"
    },
    {
        "stadiumName": "UP PARK太阳广场篮球公园",
        "latitude": "30.55337",
        "longitude": "114.243744"
    },
    {
        "stadiumName": "伯明顿羽毛球会所",
        "latitude": "30.59858",
        "longitude": "114.34131"
    },
    {
        "stadiumName": "塔子湖动宝体育公园",
        "latitude": "30.648885",
        "longitude": "114.279884"
    },
    {
        "stadiumName": "汉运动·武网俱乐部",
        "latitude": "30.601941",
        "longitude": "114.311649"
    },
    {
        "stadiumName": "武汉奥林乒乓球俱乐部",
        "latitude": "30.63802",
        "longitude": "114.16423"
    },
    {
        "stadiumName": "青山江滩羽毛球馆",
        "latitude": "30.648904",
        "longitude": "114.399371"
    },
    {
        "stadiumName": "东迈健身游泳馆",
        "latitude": "30.484198",
        "longitude": "114.445798"
    },
    {
        "stadiumName": "动宝体育荷叶山运动公园",
        "latitude": "30.501854",
        "longitude": "114.45356"
    },
    {
        "stadiumName": "保利心语游泳池",
        "latitude": "30.46838",
        "longitude": "114.326582"
    },
    {
        "stadiumName": "K9台球（光谷店）",
        "latitude": "30.505105",
        "longitude": "114.401176"
    },
    {
        "stadiumName": "洪武校场古典剑术俱乐部",
        "latitude": "30.545841",
        "longitude": "114.336699"
    },
    {
        "stadiumName": "荟趣冰上运动中心",
        "latitude": "30.617826",
        "longitude": "114.167236"
    },
    {
        "stadiumName": "向阳冰雪轮体育公园",
        "latitude": "30.518193",
        "longitude": "114.246535"
    },
    {
        "stadiumName": "引力空间运动中心",
        "latitude": "30.395679",
        "longitude": "114.372965"
    },
    {
        "stadiumName": "金银湖文体中心",
        "latitude": "30.629663",
        "longitude": "114.206627"
    },
    {
        "stadiumName": "万科城花璟苑游泳池",
        "latitude": "30.472386",
        "longitude": "114.414542"
    },
    {
        "stadiumName": "悦之动乒乓球俱乐部",
        "latitude": "30.357565",
        "longitude": "114.348007"
    },
    {
        "stadiumName": "清华阳光运动馆",
        "latitude": "30.557917",
        "longitude": "114.228751"
    },
    {
        "stadiumName": "武汉勇冠乒乓球俱乐部",
        "latitude": "30.592835",
        "longitude": "114.350878"
    },
    {
        "stadiumName": "二妃山足球场",
        "latitude": "30.48361",
        "longitude": "114.47777"
    },
    {
        "stadiumName": "绿城凤起听澜游泳池",
        "latitude": "30.500785",
        "longitude": "114.237251"
    },
    {
        "stadiumName": "枫叶国际冰上运动中心",
        "latitude": "30.449553",
        "longitude": "114.385208"
    },
    {
        "stadiumName": "汉运动·光谷全民健身中心",
        "latitude": "30.47305",
        "longitude": "114.46163"
    },
    {
        "stadiumName": "中国车谷城市足球公园",
        "latitude": "30.498309",
        "longitude": "114.170214"
    },
    {
        "stadiumName": "新起点攀岩高新馆",
        "latitude": "30.455616",
        "longitude": "114.455554"
    },
    {
        "stadiumName": "藏龙运动中心",
        "latitude": "30.483341",
        "longitude": "114.26931"
    },
    {
        "stadiumName": "汉运动·巡司河网球场",
        "latitude": "30.593354",
        "longitude": "114.304569"
    },
    {
        "stadiumName": "友球记台球（文华学院店）",
        "latitude": "30.498341",
        "longitude": "114.43708"
    },
    {
        "stadiumName": "新星乒乓球俱乐部场馆",
        "latitude": "30.539017",
        "longitude": "114.268736"
    },
    {
        "stadiumName": "UP PARK未来主场篮球公园",
        "latitude": "30.55337",
        "longitude": "114.243744"
    },
    {
        "stadiumName": "界内羽毛球馆",
        "latitude": "30.609856",
        "longitude": "114.194756"
    },
    {
        "stadiumName": "汉运动·二妃羽毛球气膜馆",
        "latitude": "30.481016",
        "longitude": "114.479253"
    },
    {
        "stadiumName": "摩虎运动家",
        "latitude": "30.53491",
        "longitude": "114.326383"
    },
    {
        "stadiumName": "可口小镇网球培训基地",
        "latitude": "30.47097",
        "longitude": "114.219727"
    },
    {
        "stadiumName": "合和篮球馆",
        "latitude": "30.498309",
        "longitude": "114.170214"
    },
    {
        "stadiumName": "好燃时刻体育公园(铁机西路店)",
        "latitude": "30.59243",
        "longitude": "114.357246"
    },
    {
        "stadiumName": "汉运动·荷田文体中心网球场",
        "latitude": "30.44943",
        "longitude": "114.40728"
    },
    {
        "stadiumName": "汉运动·光谷明珠网球场",
        "latitude": "30.474228",
        "longitude": "114.463791"
    },
    {
        "stadiumName": "汉运动·汉派匹克球俱乐部",
        "latitude": "30.481417",
        "longitude": "114.477213"
    },
    {
        "stadiumName": "蜜冠网球后湖店",
        "latitude": "30.660252",
        "longitude": "114.311915"
    },
    {
        "stadiumName": "动宝体育公园篮球公园（台北路店）",
        "latitude": "30.597336",
        "longitude": "114.279969"
    },
    {
        "stadiumName": "官桥湖藏龙体育中心",
        "latitude": "30.528562",
        "longitude": "114.381445"
    },
    {
        "stadiumName": "汉运动测试场馆",
        "latitude": "30.616937",
        "longitude": "114.257755"
    },
    {
        "stadiumName": "美好愿景香榭丽舍游泳池",
        "latitude": "30.560089",
        "longitude": "114.209817"
    },
    {
        "stadiumName": "惠俱力篮球网球培训中心（烽胜校区）",
        "latitude": "30.47664",
        "longitude": "114.295323"
    },
    {
        "stadiumName": "武汉国际体育文化交流中心",
        "latitude": "30.506571",
        "longitude": "114.171883"
    },
    {
        "stadiumName": "好燃时刻张家湾体育公园",
        "latitude": "30.477199",
        "longitude": "114.283916"
    },
    {
        "stadiumName": "保利12橡树庄园游泳池",
        "latitude": "30.449032",
        "longitude": "114.376991"
    },
    {
        "stadiumName": "YONEX-苏迪曼羽毛球馆(海绵公园店)",
        "latitude": "30.598132",
        "longitude": "114.389889"
    },
    {
        "stadiumName": "GCF乒乓球俱乐部",
        "latitude": "30.474547",
        "longitude": "114.324544"
    },
    {
        "stadiumName": "湖北文旅·武汉冰雪中心",
        "latitude": "30.517571",
        "longitude": "114.20803"
    },
    {
        "stadiumName": "中润趣谷四季滑雪场",
        "latitude": "30.432066",
        "longitude": "114.127537"
    },
    {
        "stadiumName": "新天羽盛体育运动馆",
        "latitude": "30.510303",
        "longitude": "114.191017"
    },
    {
        "stadiumName": "动邦网球俱乐部（南湖丽岛店）",
        "latitude": "30.50124",
        "longitude": "114.3472"
    },
    {
        "stadiumName": "康礼标靶运动中心（游泳馆）",
        "latitude": "30.711842",
        "longitude": "114.256157"
    },
    {
        "stadiumName": "曼巴四季恒温游泳馆",
        "latitude": "30.47647",
        "longitude": "114.4208"
    },
    {
        "stadiumName": "汉口江滩二期蜜罐网球·唔品帆体育",
        "latitude": "30.600009",
        "longitude": "114.310778"
    },
    {
        "stadiumName": "羽穹体育崇文羽毛球馆",
        "latitude": "30.509918",
        "longitude": "114.342497"
    },
    {
        "stadiumName": "自由时刻篮球公园(菱角湖店)",
        "latitude": "30.607509",
        "longitude": "114.269963"
    },
    {
        "stadiumName": "合作路体育馆",
        "latitude": "30.5858",
        "longitude": "114.29753"
    },
    {
        "stadiumName": "东湖阳光羽毛球中心",
        "latitude": "30.533131",
        "longitude": "114.386872"
    },
    {
        "stadiumName": "汉运动·汉口江滩三期网球专营店",
        "latitude": "30.625602",
        "longitude": "114.327992"
    },
    {
        "stadiumName": "瀚翔羽毛球馆",
        "latitude": "30.640841",
        "longitude": "114.408424"
    },
    {
        "stadiumName": "保利清能西海岸南区游泳池",
        "latitude": "30.397333",
        "longitude": "114.415605"
    },
    {
        "stadiumName": "洪山江滩体育公园",
        "latitude": "30.490335",
        "longitude": "114.262622"
    },
    {
        "stadiumName": "武汉体育中心游泳馆",
        "latitude": "30.506571",
        "longitude": "114.171883"
    },
    {
        "stadiumName": "一恒游泳馆",
        "latitude": "30.624899",
        "longitude": "114.365347"
    },
    {
        "stadiumName": "新奥乒乓球运动馆",
        "latitude": "30.481308",
        "longitude": "114.401939"
    },
    {
        "stadiumName": "星羽乐羽毛球馆",
        "latitude": "30.49775",
        "longitude": "114.18175"
    },
    {
        "stadiumName": "东湖帆船公园",
        "latitude": "30.567026",
        "longitude": "114.396802"
    },
    {
        "stadiumName": "万科红郡游泳池",
        "latitude": "30.454388",
        "longitude": "114.413158"
    },
    {
        "stadiumName": "汉风超越乒乓球俱乐部",
        "latitude": "30.5494",
        "longitude": "114.26572"
    },
    {
        "stadiumName": "汉运动·光谷国际网球中心网球 专营店",
        "latitude": "30.47305",
        "longitude": "114.46163"
    },
    {
        "stadiumName": "智体跬步体育中心(常青公园网球馆)",
        "latitude": "30.62044",
        "longitude": "114.23661"
    },
    {
        "stadiumName": "奥雅网球俱乐部",
        "latitude": "30.597901",
        "longitude": "114.309338"
    },
    {
        "stadiumName": "黄狮海游泳馆",
        "latitude": "30.638076",
        "longitude": "114.156373"
    },
    {
        "stadiumName": "Layeehub來嘢匹克球俱乐部（光谷全明星店）",
        "latitude": "30.46588",
        "longitude": "114.406695"
    },
    {
        "stadiumName": "汉口江滩三期滨江阳光羽毛球馆·破冰体育",
        "latitude": "30.633312",
        "longitude": "114.28302"
    },
    {
        "stadiumName": "Layeehub Family來嘢城市球友驿站",
        "latitude": "30.66777",
        "longitude": "114.328644"
    },
    {
        "stadiumName": "保利清能西海岸北区游泳池",
        "latitude": "30.404099",
        "longitude": "114.417246"
    },
    {
        "stadiumName": "乐动体育羽毛球馆",
        "latitude": "30.618881",
        "longitude": "114.266458"
    },
    {
        "stadiumName": "汉阳江滩捷众体育足球场·捷众体育",
        "latitude": "30.55418",
        "longitude": "114.316464"
    },
    {
        "stadiumName": "起点网球俱乐部(CBD店)",
        "latitude": "30.599678",
        "longitude": "114.246758"
    },
    {
        "stadiumName": "美院coast游泳馆",
        "latitude": "30.385609",
        "longitude": "114.373874"
    },
    {
        "stadiumName": "纱帽广场游泳池",
        "latitude": "30.30946",
        "longitude": "114.0767"
    },
    {
        "stadiumName": "东湖阳光足球场",
        "latitude": "30.533683",
        "longitude": "114.387031"
    },
    {
        "stadiumName": "极一公社羽毛球馆",
        "latitude": "30.488409",
        "longitude": "114.294235"
    },
    {
        "stadiumName": "优胜美岩攀岩馆",
        "latitude": "30.577122",
        "longitude": "114.364078"
    },
    {
        "stadiumName": "自由时刻蕴动篮球公园",
        "latitude": "30.53046",
        "longitude": "114.182243"
    },
    {
        "stadiumName": "中国车谷全民健身中心（南馆）",
        "latitude": "30.30864",
        "longitude": "114.073242"
    },
    {
        "stadiumName": "千百尚羽毛球馆",
        "latitude": "30.619747",
        "longitude": "114.23599"
    },
    {
        "stadiumName": "黄陂区全民健身中心",
        "latitude": "30.880402",
        "longitude": "114.384834"
    },
    {
        "stadiumName": "微至运动康复中心（丘山店）",
        "latitude": "30.519684",
        "longitude": "114.395986"
    },
    {
        "stadiumName": "迈科威羽毛球馆（墨水湖南岸）",
        "latitude": "30.53029",
        "longitude": "114.24389"
    },
    {
        "stadiumName": "光谷半岛滑翔伞营地",
        "latitude": "30.543804",
        "longitude": "114.485663"
    },
    {
        "stadiumName": "微至运动康复中心（新华店）",
        "latitude": "30.592312",
        "longitude": "114.273098"
    },
    {
        "stadiumName": "武昌江滩滨江网球·斯跑特体育",
        "latitude": "30.55805",
        "longitude": "114.30117"
    },
    {
        "stadiumName": "康之泉活水馆（铁机馆）",
        "latitude": "30.593796",
        "longitude": "114.35678"
    },
    {
        "stadiumName": "梧桐雨体育中心",
        "latitude": "30.678816",
        "longitude": "114.268337"
    },
    {
        "stadiumName": "武汉市新洲区业余体校体育馆",
        "latitude": "30.83887",
        "longitude": "114.80906"
    },
    {
        "stadiumName": "汉运动·武网俱乐部（爱网客·汉口江滩三期店）",
        "latitude": "30.625577",
        "longitude": "114.328003"
    }
]